City_ID,City,Country,Date,Lat,Lng,Max Temp,Humidity,Cloudiness,Wind Speed,Current Description,Rain Inches (last 3 hrs),Snow Inches (last 3 hrs)
0,Alta Floresta,BR,2019-11-10 05:50:13,-9.87,-56.08,70.41,99,100,2.68,overcast clouds,0.0,0.0
1,Iwanai,JP,2019-11-10 05:50:13,42.97,140.51,40.1,62,47,10.31,scattered clouds,0.0,0.0
2,Arvika,SE,2019-11-10 05:50:14,59.65,12.59,28.0,100,69,10.29,broken clouds,0.0,0.0
3,Hamilton,CA,2019-11-10 05:50:14,43.26,-79.87,39.2,74,75,8.05,broken clouds,0.0,0.0
4,Avarua,CK,2019-11-10 05:48:33,-21.21,-159.78,73.4,83,0,6.93,light rain,0.0,0.0
5,Alofi,NU,2019-11-10 05:45:56,-19.06,-169.92,78.8,74,2,10.29,clear sky,0.0,0.0
6,Puerto Ayora,EC,2019-11-10 05:49:44,-0.74,-90.35,69.01,90,16,3.0,few clouds,0.0,0.0
7,Moree,AU,2019-11-10 05:50:16,-29.46,149.84,80.6,12,0,19.46,clear sky,0.0,0.0
8,Mataura,NZ,2019-11-10 05:50:17,-46.19,168.86,52.0,77,92,7.0,light rain,0.88,0.0
9,Pevek,RU,2019-11-10 05:50:17,69.7,170.27,6.44,67,0,2.68,clear sky,0.0,0.0
10,Port Hardy,CA,2019-11-10 05:50:18,50.7,-127.42,48.2,100,90,3.36,light intensity drizzle,0.0,0.0
11,Wanaka,NZ,2019-11-10 05:50:18,-44.7,169.14,41.88,95,97,3.71,light rain,1.0,0.0
12,Chunskiy,RU,2019-11-10 05:50:18,56.08,99.63,13.44,66,100,10.76,overcast clouds,0.0,0.0
13,Pacific Grove,US,2019-11-10 05:46:38,36.62,-121.92,55.99,93,90,6.93,mist,0.0,0.0
14,Mufumbwe,ZM,2019-11-10 05:50:19,-13.68,24.8,79.25,40,62,6.04,broken clouds,0.0,0.0
15,Do Gonbadan,IR,2019-11-10 05:50:20,30.36,50.8,71.6,14,0,16.11,clear sky,0.0,0.0
16,Ribeira Grande,PT,2019-11-10 05:50:20,38.52,-28.7,62.78,84,51,5.91,broken clouds,0.0,0.0
17,Denpasar,ID,2019-11-10 05:50:21,-8.65,115.22,89.6,59,20,11.41,few clouds,0.0,0.0
18,Chuy,UY,2019-11-10 05:50:21,-33.69,-53.46,61.0,85,23,8.59,few clouds,0.0,0.0
19,Teguldet,RU,2019-11-10 05:50:22,57.31,88.17,8.44,77,77,5.86,broken clouds,0.0,0.0
20,Bilibino,RU,2019-11-10 05:50:22,68.06,166.44,2.8,54,0,3.65,clear sky,0.0,0.0
21,Ushuaia,AR,2019-11-10 05:50:23,-54.81,-68.31,35.6,93,18,4.7,few clouds,0.0,0.0
22,Aklavik,CA,2019-11-10 05:50:23,68.22,-135.01,8.6,50,20,4.7,few clouds,0.0,0.0
23,Kapaa,US,2019-11-10 05:49:35,22.08,-159.32,78.8,83,1,3.36,clear sky,0.0,0.0
24,Kirillov,RU,2019-11-10 05:50:24,59.86,38.38,35.6,100,90,6.71,overcast clouds,0.0,0.0
25,Kahului,US,2019-11-10 05:50:25,20.89,-156.47,78.8,74,40,5.82,scattered clouds,0.0,0.0
26,Kang,BW,2019-11-10 05:50:25,-23.67,22.79,75.74,53,99,10.29,overcast clouds,0.0,0.0
27,Vanavara,RU,2019-11-10 05:50:25,60.35,102.28,-6.94,89,100,8.72,overcast clouds,0.0,0.0
28,Tasiilaq,GL,2019-11-10 05:50:27,65.61,-37.64,37.4,64,100,34.45,light intensity shower rain,0.0,0.0
29,Touros,BR,2019-11-10 05:49:41,-5.2,-35.46,75.2,88,90,6.93,overcast clouds,0.0,0.0
30,Carnarvon,ZA,2019-11-10 05:50:28,-30.97,22.13,69.19,31,99,9.44,overcast clouds,0.0,0.0
31,Gawler,AU,2019-11-10 05:47:47,-34.6,138.75,75.0,35,0,6.93,clear sky,0.0,0.0
32,Praia,BR,2019-11-10 05:50:29,-20.25,-43.81,71.6,68,74,4.7,broken clouds,0.0,0.0
33,Kawalu,ID,2019-11-10 05:50:29,-7.38,108.21,85.17,52,26,7.99,scattered clouds,0.0,0.0
34,Gotsu,JP,2019-11-10 05:50:30,35.01,132.22,64.4,48,75,3.36,broken clouds,0.0,0.0
35,Tautira,PF,2019-11-10 05:50:30,-17.73,-149.15,78.8,83,90,2.24,overcast clouds,0.0,0.0
36,Tarakan,ID,2019-11-10 05:50:30,3.3,117.63,86.2,65,86,8.86,overcast clouds,0.0,0.0
37,Qaanaaq,GL,2019-11-10 05:50:31,77.48,-69.36,-5.12,39,0,5.61,clear sky,0.0,0.0
38,Bandarbeyla,SO,2019-11-10 05:50:31,9.49,50.81,79.68,72,1,13.04,clear sky,0.0,0.0
39,Dunedin,NZ,2019-11-10 05:46:00,-45.87,170.5,51.01,85,97,11.99,overcast clouds,0.0,0.0
40,Chicama,PE,2019-11-10 05:50:33,-7.84,-79.15,64.4,82,75,6.93,mist,0.0,0.0
41,Airai,TL,2019-11-10 05:50:33,-8.93,125.41,84.22,39,80,8.93,broken clouds,0.0,0.0
42,Kuvandyk,RU,2019-11-10 05:50:34,51.48,57.35,28.54,47,95,4.54,overcast clouds,0.0,0.0
43,Albany,US,2019-11-10 05:48:04,42.65,-73.75,35.6,37,90,8.05,overcast clouds,0.0,0.0
44,Luderitz,NA,2019-11-10 05:50:34,-26.65,15.16,62.6,77,20,5.82,few clouds,0.0,0.0
45,Kodiak,US,2019-11-10 05:50:35,39.95,-94.76,55.0,62,1,14.99,clear sky,0.0,0.0
46,Vaini,IN,2019-11-10 05:50:36,15.34,74.49,82.4,54,0,10.29,clear sky,0.0,0.0
47,Salisbury,GB,2019-11-10 05:50:37,51.07,-1.8,44.6,93,100,10.29,overcast clouds,0.0,0.0
48,Laguna,BZ,2019-11-10 05:45:40,16.17,-88.94,75.2,100,40,2.73,scattered clouds,0.0,0.0
49,Faanui,PF,2019-11-10 05:50:19,-16.48,-151.75,77.7,83,100,11.72,light rain,2.0,0.0
50,Butaritari,KI,2019-11-10 05:49:34,3.07,172.79,85.32,60,86,1.36,overcast clouds,0.0,0.0
51,Hobart,AU,2019-11-10 05:47:47,-42.88,147.33,62.01,48,75,10.29,broken clouds,0.0,0.0
52,Barrow,AR,2019-11-10 05:45:48,-38.31,-60.23,45.64,75,0,7.43,clear sky,0.0,0.0
53,Broken Hill,AU,2019-11-10 05:50:42,-31.97,141.45,77.0,15,0,10.29,clear sky,0.0,0.0
54,Bethanien,NA,2019-11-10 05:50:42,-26.5,17.16,66.33,26,0,5.26,clear sky,0.0,0.0
55,Naze,NG,2019-11-10 05:50:43,5.43,7.07,76.17,92,100,0.94,light rain,0.69,0.0
56,Busselton,AU,2019-11-10 05:50:43,-33.64,115.35,82.99,36,15,12.41,few clouds,0.0,0.0
57,Arraial Do Cabo,BR,2019-11-10 05:50:44,-22.97,-42.02,73.04,93,100,14.65,overcast clouds,0.0,0.0
58,Port Townsend,US,2019-11-10 05:50:44,48.12,-122.76,52.0,100,90,2.04,mist,0.0,0.0
59,Taltal,CL,2019-11-10 05:46:05,-25.41,-70.49,51.93,92,46,7.43,scattered clouds,0.0,0.0
60,Gat,SN,2019-11-10 05:50:45,14.69,-16.54,71.6,88,36,13.87,scattered clouds,0.0,0.0
61,Esperance,AU,2019-11-10 05:50:46,-33.86,121.89,80.6,39,34,23.04,scattered clouds,0.0,0.0
62,Punta Arenas,CL,2019-11-10 05:50:46,-53.16,-70.91,37.4,69,33,10.29,scattered clouds,0.0,0.0
63,Kokopo,PG,2019-11-10 05:50:47,-4.34,152.27,75.06,89,98,7.25,heavy intensity rain,26.25,0.0
64,Miraflores,PE,2019-11-10 05:50:48,-16.39,-71.52,57.2,41,100,2.37,overcast clouds,0.0,0.0
65,Kozhva,RU,2019-11-10 05:50:48,65.11,57.05,4.64,92,60,6.38,broken clouds,0.0,0.0
66,Shimoda,JP,2019-11-10 05:50:49,34.7,138.93,66.2,52,20,10.29,few clouds,0.0,0.0
67,Atuona,PF,2019-11-10 05:50:49,-9.8,-139.03,79.79,80,2,14.25,light rain,0.25,0.0
68,Morondava,MG,2019-11-10 05:50:49,-20.3,44.28,96.22,33,2,3.06,clear sky,0.0,0.0
69,Hasaki,JP,2019-11-10 05:50:50,35.73,140.83,69.01,59,20,3.36,few clouds,0.0,0.0
70,Mana,NG,2019-11-10 05:50:51,13.03,5.27,76.06,30,1,4.03,clear sky,0.0,0.0
71,Iqaluit,CA,2019-11-10 05:47:58,63.75,-68.52,6.8,84,75,19.46,broken clouds,0.0,0.0
72,Zaranj,AF,2019-11-10 05:50:51,30.95,61.86,57.2,30,75,26.4,broken clouds,0.0,0.0
73,San Nicolas,PH,2019-11-10 05:50:52,13.93,120.95,86.0,66,75,8.05,broken clouds,0.0,0.0
74,Takaka,NZ,2019-11-10 05:50:52,-40.86,172.81,63.0,93,100,1.01,light rain,0.81,0.0
75,Yellowknife,CA,2019-11-10 05:50:53,62.45,-114.38,5.0,77,90,10.29,light snow,0.0,0.0
76,Codrington,AU,2019-11-10 05:50:53,-28.95,153.24,77.0,25,90,14.99,overcast clouds,0.0,0.0
77,Beaupre,CA,2019-11-10 05:50:54,47.04,-70.9,35.01,75,90,14.99,overcast clouds,0.0,0.0
78,Petrovsk,RU,2019-11-10 05:50:54,52.31,45.39,32.9,76,8,9.89,clear sky,0.0,0.0
79,East London,ZA,2019-11-10 05:49:52,-33.02,27.91,66.2,82,20,9.17,few clouds,0.0,0.0
80,Cap Malheureux,MU,2019-11-10 05:50:55,-19.98,57.61,80.6,65,75,6.93,broken clouds,0.0,0.0
81,Tweed,CA,2019-11-10 05:50:56,44.48,-77.31,41.0,60,90,10.29,overcast clouds,0.0,0.0
82,Lagoa,PT,2019-11-10 05:50:11,37.14,-8.45,57.2,76,100,11.41,overcast clouds,0.0,0.0
83,Pisco,PE,2019-11-10 05:50:57,-13.71,-76.2,63.0,82,28,6.93,scattered clouds,0.0,0.0
84,Catalina,PE,2019-11-10 05:50:58,-13.57,-76.13,63.0,82,28,6.93,scattered clouds,0.0,0.0
85,Half Moon Bay,US,2019-11-10 05:50:58,37.46,-122.43,54.0,93,90,3.36,overcast clouds,0.0,0.0
86,Hualmay,PE,2019-11-10 05:50:58,-11.1,-77.61,60.84,87,73,2.84,broken clouds,0.0,0.0
87,Te Anau,NZ,2019-11-10 05:50:59,-45.41,167.72,45.88,80,69,9.4,light rain,0.75,0.0
88,Bambari,CF,2019-11-10 05:50:59,5.77,20.68,75.51,70,42,0.56,scattered clouds,0.0,0.0
89,Vondrozo,MG,2019-11-10 05:51:00,-22.82,47.32,81.97,65,75,3.11,broken clouds,0.0,0.0
90,Rikitea,PF,2019-11-10 05:51:00,-23.12,-134.97,73.85,72,97,13.06,overcast clouds,0.0,0.0
91,Lavrentiya,RU,2019-11-10 05:50:24,65.58,-170.99,34.41,96,100,5.61,light rain,0.25,0.0
92,Millbrook,US,2019-11-10 05:51:01,32.48,-86.36,43.0,100,1,0.87,clear sky,0.0,0.0
93,Labuhan,ID,2019-11-10 05:51:01,-2.54,115.51,93.81,42,98,1.16,overcast clouds,0.0,0.0
94,Invermere,CA,2019-11-10 05:51:02,50.51,-116.03,33.01,89,100,1.83,snow,0.0,3.38
95,Castro,CL,2019-11-10 05:51:02,-42.48,-73.76,48.2,100,87,3.36,overcast clouds,0.0,0.0
96,Comodoro Rivadavia,AR,2019-11-10 05:46:08,-45.87,-67.48,44.6,70,70,3.36,broken clouds,0.0,0.0
97,Hilo,US,2019-11-10 05:49:46,19.71,-155.08,78.8,78,20,3.36,few clouds,0.0,0.0
98,Temiscaming,CA,2019-11-10 05:51:04,46.72,-79.1,34.0,98,90,9.17,heavy snow,0.0,0.0
99,Takoradi,GH,2019-11-10 05:51:04,4.89,-1.75,78.76,83,41,6.04,light rain,1.06,0.0
100,Energeticheskiy,KZ,2019-11-10 05:51:05,43.43,77.02,48.2,61,75,4.47,smoke,0.0,0.0
101,Lasa,CY,2019-11-10 05:51:05,34.92,32.53,69.8,37,0,10.29,clear sky,0.0,0.0
102,Ahipara,NZ,2019-11-10 05:51:05,-35.17,173.16,62.01,100,87,21.59,light rain,0.13,0.0
103,Upernavik,GL,2019-11-10 05:51:06,72.79,-56.15,16.0,67,75,2.8,broken clouds,0.0,0.0
104,Nikolskoye,RU,2019-11-10 05:51:06,59.7,30.79,43.0,100,90,8.95,overcast clouds,0.0,0.0
105,Coquimbo,CL,2019-11-10 05:51:07,-29.95,-71.34,51.8,93,0,2.91,clear sky,0.0,0.0
106,Hithadhoo,MV,2019-11-10 05:51:07,-0.6,73.08,82.24,74,10,11.01,light rain,0.44,0.0
107,General Pico,AR,2019-11-10 05:50:44,-35.66,-63.75,60.06,96,6,10.29,clear sky,0.0,0.0
108,Tilichiki,RU,2019-11-10 05:51:08,60.47,166.1,30.4,96,100,11.77,snow,0.0,4.56
109,Namibe,AO,2019-11-10 05:51:08,-15.19,12.15,77.07,77,26,4.05,scattered clouds,0.0,0.0
110,Mazatlan,MX,2019-11-10 05:51:09,23.22,-106.42,82.99,83,40,9.55,scattered clouds,0.0,0.0
111,Tessalit,ML,2019-11-10 05:51:09,20.2,1.01,74.8,24,83,5.91,broken clouds,0.0,0.0
112,Hermanus,ZA,2019-11-10 05:51:10,-34.42,19.24,66.99,79,78,15.01,broken clouds,0.0,0.0
113,Bluff,AU,2019-11-10 05:51:10,-23.58,149.07,89.69,9,15,2.98,few clouds,0.0,0.0
114,Polikhronon,GR,2019-11-10 05:51:11,40.02,23.53,63.0,100,30,3.0,light rain,0.13,0.0
115,Ilulissat,GL,2019-11-10 05:51:11,69.22,-51.1,37.4,32,80,19.46,broken clouds,0.0,0.0
116,Yerofey Pavlovich,RU,2019-11-10 05:51:11,53.97,121.97,14.45,92,100,5.77,light snow,0.0,1.19
117,Cortez,US,2019-11-10 05:51:12,37.35,-108.58,35.01,42,1,4.47,clear sky,0.0,0.0
118,Tuktoyaktuk,CA,2019-11-10 05:51:12,69.44,-133.03,6.8,65,5,13.87,clear sky,0.0,0.0
119,Haines Junction,CA,2019-11-10 05:51:13,60.75,-137.51,-3.86,96,0,5.44,clear sky,0.0,0.0
120,Aadorf,CH,2019-11-10 05:51:13,47.49,8.9,36.0,100,90,0.02,fog,0.0,0.0
121,Havre,US,2019-11-10 05:51:14,48.55,-109.68,21.99,92,90,16.11,light rain,0.0,0.51
122,Cherskiy,RU,2019-11-10 05:51:14,68.75,161.3,-1.99,93,7,1.59,clear sky,0.0,0.0
123,Santa Isabel Do Rio Negro,BR,2019-11-10 05:51:14,-0.41,-65.02,75.49,84,72,1.9,broken clouds,0.0,0.0
124,Lazaro Cardenas,MX,2019-11-10 05:51:15,28.39,-105.62,57.99,86,100,1.99,light rain,0.38,0.0
125,Gold Coast,AU,2019-11-10 05:51:15,-28.0,153.41,91.99,36,90,10.29,overcast clouds,0.0,0.0
126,Longyearbyen,NO,2019-11-10 05:51:16,78.22,15.63,23.0,73,75,3.36,broken clouds,0.0,0.0
127,Bulawayo,ZW,2019-11-10 05:51:16,-20.16,28.59,73.49,64,94,6.49,overcast clouds,0.0,0.0
128,Sitka,US,2019-11-10 05:51:17,37.17,-99.65,46.99,48,0,8.75,clear sky,0.0,0.0
129,Evensk,RU,2019-11-10 05:51:17,61.92,159.24,21.83,93,100,11.41,light snow,0.0,0.63
130,Saint-Philippe,CA,2019-11-10 05:50:09,45.36,-73.48,37.0,43,90,12.75,overcast clouds,0.0,0.0
131,Alacranes,CU,2019-11-10 05:51:18,22.77,-81.57,75.2,88,75,8.05,broken clouds,0.0,0.0
132,Trojes,AL,2019-11-10 05:51:18,41.76,19.96,55.4,87,75,6.93,broken clouds,0.0,0.0
133,Tignere,CM,2019-11-10 05:51:19,7.37,12.65,70.97,62,96,2.91,overcast clouds,0.0,0.0
134,Ternate,PH,2019-11-10 05:50:38,14.29,120.72,86.0,66,75,8.05,broken clouds,0.0,0.0
135,Sassandra,CI,2019-11-10 05:51:21,4.95,-6.09,74.41,94,2,5.06,light rain,0.88,0.0
136,Rock Sound,BS,2019-11-10 05:51:21,24.9,-76.2,75.6,75,25,15.75,scattered clouds,0.0,0.0
137,Forestville,CA,2019-11-10 05:46:45,48.74,-69.09,30.2,58,90,19.46,overcast clouds,0.0,0.0
138,Norman Wells,CA,2019-11-10 05:51:22,65.28,-126.83,-11.21,83,20,4.7,few clouds,0.0,0.0
139,Khatanga,RU,2019-11-10 05:51:22,71.98,102.47,-1.36,96,100,15.84,light snow,0.0,0.63
140,Mahebourg,MU,2019-11-10 05:51:23,-20.41,57.7,80.6,65,75,6.93,broken clouds,0.0,0.0
141,Necochea,AR,2019-11-10 05:51:24,-38.55,-58.74,39.99,89,0,1.99,clear sky,0.0,0.0
142,Nanortalik,GL,2019-11-10 05:51:25,60.14,-45.24,34.54,82,83,6.96,light snow,0.0,0.56
143,Cidreira,BR,2019-11-10 05:50:28,-30.17,-50.22,70.45,91,99,17.72,light rain,2.5,0.0
144,Adrar,DZ,2019-11-10 05:51:25,27.87,-0.29,46.4,39,0,8.05,clear sky,0.0,0.0
145,Kulhudhuffushi,MV,2019-11-10 05:48:20,6.62,73.07,82.08,66,0,3.11,clear sky,0.0,0.0
146,Mount Isa,AU,2019-11-10 05:51:26,-20.73,139.49,91.4,7,67,6.93,broken clouds,0.0,0.0
147,San Pedro De Tutule,HN,2019-11-10 05:51:27,14.25,-87.86,61.57,87,75,7.56,broken clouds,0.0,0.0
148,Mar Del Plata,AR,2019-11-10 05:51:28,-46.43,-67.52,47.73,71,99,16.44,overcast clouds,0.0,0.0
149,Lebu,ET,2019-11-10 05:51:28,8.96,38.73,60.8,51,4,2.24,clear sky,0.0,0.0
150,Geraldton,CA,2019-11-10 05:51:28,49.72,-86.95,14.0,92,90,4.7,light snow,0.0,0.0
151,Victoriaville,CA,2019-11-10 05:51:29,46.06,-71.95,34.0,64,90,24.16,overcast clouds,0.0,0.0
152,Torbay,CA,2019-11-10 05:51:29,47.66,-52.73,32.0,58,40,8.05,scattered clouds,0.0,0.0
153,Richards Bay,ZA,2019-11-10 05:51:30,-28.77,32.06,70.14,78,61,19.17,broken clouds,0.0,0.0
154,Jamestown,AU,2019-11-10 05:51:30,-33.21,138.6,75.81,13,0,9.84,clear sky,0.0,0.0
155,Kuching,MY,2019-11-10 05:50:56,1.56,110.34,91.4,59,75,5.82,broken clouds,0.0,0.0
156,Usogorsk,RU,2019-11-10 05:51:31,63.43,48.71,18.61,93,100,8.01,light snow,0.0,0.94
157,Dubti,ET,2019-11-10 05:51:31,11.74,41.09,80.33,53,0,7.07,clear sky,0.0,0.0
158,Marzuq,YE,2019-11-10 05:51:32,14.4,46.47,74.64,32,0,0.87,clear sky,0.0,0.0
159,Cape Town,ZA,2019-11-10 05:51:19,-33.93,18.42,64.4,82,79,8.05,broken clouds,0.0,0.0
160,Samarai,PG,2019-11-10 05:51:33,-10.62,150.67,79.23,82,95,7.76,light rain,0.75,0.0
161,Troitsk,RU,2019-11-10 05:51:33,54.08,61.55,18.07,80,31,6.53,scattered clouds,0.0,0.0
162,Kargasok,RU,2019-11-10 05:51:33,59.06,80.87,12.09,88,100,6.8,overcast clouds,0.0,0.0
163,Jumla,NP,2019-11-10 05:51:34,29.28,82.18,59.23,23,0,5.7,clear sky,0.0,0.0
164,Batabano,CU,2019-11-10 05:51:35,22.72,-82.29,75.2,100,75,4.7,broken clouds,0.0,0.0
165,Sao Mateus,BR,2019-11-10 05:50:55,-18.72,-39.86,68.2,96,19,2.37,few clouds,0.0,0.0
166,Cayenne,GF,2019-11-10 05:51:12,4.94,-52.33,77.0,94,9,3.49,clear sky,0.0,0.0
167,Montlucon,FR,2019-11-10 05:51:36,46.33,2.6,39.99,96,99,1.99,light rain,1.44,0.0
168,Cedar City,US,2019-11-10 05:51:23,37.68,-113.06,37.4,29,1,1.9,clear sky,0.0,0.0
169,New Norfolk,AU,2019-11-10 05:49:35,-42.78,147.06,62.01,48,75,10.29,broken clouds,0.0,0.0
170,Lorengau,PG,2019-11-10 05:51:40,-2.02,147.27,81.01,81,100,18.81,moderate rain,5.94,0.0
171,Hovd,NO,2019-11-10 05:51:41,63.83,10.7,25.0,85,75,6.93,broken clouds,0.0,0.0
172,Loiza,PR,2019-11-10 05:51:41,18.43,-65.88,81.0,88,20,7.49,few clouds,0.0,0.0
173,Claremont,US,2019-11-10 05:51:42,34.1,-117.72,72.0,13,1,4.7,clear sky,0.0,0.0
174,Bredasdorp,ZA,2019-11-10 05:51:43,-34.53,20.04,66.99,77,97,16.11,overcast clouds,0.0,0.0
175,Nome,US,2019-11-10 05:51:43,30.04,-94.42,48.2,93,1,1.81,clear sky,0.0,0.0
176,Flinders,AU,2019-11-10 05:51:44,-34.58,150.85,71.6,37,40,10.29,scattered clouds,0.0,0.0
177,Victoria,BN,2019-11-10 05:51:44,5.28,115.24,87.8,66,75,5.82,broken clouds,0.0,0.0
178,Grindavik,IS,2019-11-10 05:51:45,63.84,-22.43,42.8,81,75,21.92,broken clouds,0.0,0.0
179,Kaitangata,NZ,2019-11-10 05:51:45,-46.28,169.85,51.01,74,80,10.0,broken clouds,0.0,0.0
180,Poso,ID,2019-11-10 05:51:45,-1.4,120.75,74.39,71,100,3.44,light rain,0.13,0.0
181,Kruisfontein,ZA,2019-11-10 05:51:46,-34.0,24.73,62.24,86,97,15.84,light rain,0.19,0.0
182,Brae,GB,2019-11-10 05:51:46,60.4,-1.35,39.2,57,37,4.7,scattered clouds,0.0,0.0
183,Ormara,PK,2019-11-10 05:50:49,25.21,64.64,77.67,48,77,3.44,broken clouds,0.0,0.0
184,Sarkand,KZ,2019-11-10 05:51:47,45.41,79.91,47.16,43,100,2.98,overcast clouds,0.0,0.0
185,Inta,RU,2019-11-10 05:51:48,66.04,60.13,0.52,92,16,2.01,few clouds,0.0,0.0
186,Aniva,RU,2019-11-10 05:51:48,46.71,142.53,35.6,47,20,8.95,few clouds,0.0,0.0
187,Soubre,CI,2019-11-10 05:51:48,5.79,-6.61,70.29,99,19,1.81,few clouds,0.0,0.0
188,Bambous Virieux,MU,2019-11-10 05:51:49,-20.34,57.76,80.6,65,75,6.93,broken clouds,0.0,0.0
189,Inirida,CO,2019-11-10 05:51:50,3.87,-67.92,73.17,93,42,1.81,scattered clouds,0.0,0.0
190,Bikramganj,IN,2019-11-10 05:51:50,25.22,84.27,84.16,47,0,5.5,clear sky,0.0,0.0
191,Muravlenko,RU,2019-11-10 05:51:51,63.79,74.5,-6.58,94,45,5.19,scattered clouds,0.0,0.0
192,Tura,RU,2019-11-10 05:51:51,64.27,100.22,-13.8,88,77,4.09,broken clouds,0.0,0.0
193,Caravelas,BR,2019-11-10 05:51:51,-17.73,-39.27,68.18,95,3,4.7,clear sky,0.0,0.0
194,Massakory,TD,2019-11-10 05:51:52,13.0,15.73,80.87,13,100,8.57,overcast clouds,0.0,0.0
195,Kavaratti,IN,2019-11-10 05:50:03,10.57,72.64,86.0,70,20,6.93,few clouds,0.0,0.0
196,Pundaguitan,PH,2019-11-10 05:51:53,6.37,126.17,85.01,62,64,3.53,broken clouds,0.0,0.0
197,Kieta,PG,2019-11-10 05:51:54,-6.22,155.63,83.14,69,61,4.83,light rain,1.31,0.0
198,Hojai,IN,2019-11-10 05:51:54,26.0,92.85,72.59,88,99,3.31,light rain,0.38,0.0
199,Fortuna,US,2019-11-10 05:51:55,40.6,-124.16,51.01,93,90,3.31,overcast clouds,0.0,0.0
200,Tamarindo,CU,2019-11-10 05:51:55,22.12,-78.91,71.98,95,53,8.97,broken clouds,0.0,0.0
201,Padang,ID,2019-11-10 05:51:56,-0.92,100.36,74.8,89,78,3.96,light rain,2.0,0.0
202,Cockburn Town,TC,2019-11-10 05:47:03,21.46,-71.14,82.15,74,2,5.37,light rain,1.44,0.0
203,Fougamou,GA,2019-11-10 05:51:57,-1.22,10.59,75.2,97,96,1.14,overcast clouds,0.0,0.0
204,Pochutla,MX,2019-11-10 05:51:58,15.74,-96.47,77.0,89,39,5.01,scattered clouds,0.0,0.0
205,Port Alfred,ZA,2019-11-10 05:51:58,-33.59,26.89,64.0,94,100,5.99,overcast clouds,0.0,0.0
206,Chokurdakh,RU,2019-11-10 05:51:58,70.62,147.9,-2.87,96,71,5.46,broken clouds,0.0,0.0
207,Sept-Iles,CA,2019-11-10 05:51:59,50.2,-66.38,19.0,92,90,5.82,light snow,0.0,0.0
208,Robertsport,LR,2019-11-10 05:51:59,6.75,-11.37,81.1,77,63,6.58,light rain,2.88,0.0
209,Kavieng,PG,2019-11-10 05:52:00,-2.57,150.8,79.29,81,100,4.23,light rain,0.31,0.0
210,Bethel,US,2019-11-10 05:49:35,60.79,-161.76,26.6,85,1,10.29,clear sky,0.0,0.0
211,Catumbela,AO,2019-11-10 05:52:01,-12.43,13.55,80.6,83,90,6.4,overcast clouds,0.0,0.0
212,Salima,MW,2019-11-10 05:52:01,-13.78,34.45,80.94,60,65,9.53,broken clouds,0.0,0.0
213,Nelson Bay,AU,2019-11-10 05:52:01,-32.72,152.14,73.0,46,17,14.99,few clouds,0.0,0.0
214,Lebedinyy,RU,2019-11-10 05:52:02,58.52,125.52,19.71,93,100,3.74,light snow,0.0,0.44
215,Salalah,OM,2019-11-10 05:52:02,17.01,54.1,80.6,65,20,8.05,few clouds,0.0,0.0
216,La Ronge,CA,2019-11-10 05:52:03,55.1,-105.3,8.6,60,90,11.41,light snow,0.0,0.0
217,Saint George,GR,2019-11-10 05:52:04,39.45,22.34,55.4,93,40,4.7,scattered clouds,0.0,0.0
218,Nha Trang,VN,2019-11-10 05:52:04,12.24,109.19,73.4,100,90,13.87,light rain,0.0,0.0
219,Avera,US,2019-11-10 05:52:04,33.19,-82.53,41.0,51,1,3.36,clear sky,0.0,0.0
220,Malanje,AO,2019-11-10 05:52:05,-9.54,16.35,66.79,95,100,2.51,light rain,0.13,0.0
221,Discovery Bay,JM,2019-11-10 05:52:05,18.46,-77.4,80.6,78,20,2.24,few clouds,0.0,0.0
222,Bitung,ID,2019-11-10 05:52:06,1.44,125.19,86.0,62,20,6.93,few clouds,0.0,0.0
223,Cloquet,US,2019-11-10 05:52:06,46.72,-92.46,32.0,77,90,6.93,overcast clouds,0.0,0.0
224,Tanout,NE,2019-11-10 05:52:07,14.97,8.88,78.03,15,0,8.32,clear sky,0.0,0.0
225,Veglie,IT,2019-11-10 05:52:07,40.34,17.97,59.0,87,20,2.24,thunderstorm,0.0,0.0
226,Lishu,CN,2019-11-10 05:52:08,43.31,124.32,51.46,55,100,11.39,light rain,0.25,0.0
227,Ulladulla,AU,2019-11-10 05:50:20,-35.36,150.48,71.6,37,40,10.29,scattered clouds,0.0,0.0
228,Nanakuli,US,2019-11-10 05:52:09,21.39,-158.15,80.6,83,1,3.36,clear sky,0.0,0.0
229,Opuwo,NA,2019-11-10 05:52:09,-18.06,13.84,72.16,25,100,10.04,overcast clouds,0.0,0.0
230,Rio Grande,BR,2019-11-10 05:52:10,-32.03,-52.1,68.0,95,39,1.99,light rain,0.19,0.0
231,Dikson,RU,2019-11-10 05:52:10,73.51,80.55,21.69,94,100,18.86,light snow,0.0,0.75
232,Ketchikan,US,2019-11-10 05:52:10,55.34,-131.65,48.2,100,90,23.04,light rain,0.89,0.0
233,Bhola,PK,2019-11-10 05:52:11,32.66,73.89,69.8,68,0,4.7,smoke,0.0,0.0
234,Verkhnyaya Inta,RU,2019-11-10 05:52:11,65.99,60.32,2.5,86,25,4.16,scattered clouds,0.0,0.0
235,Husavik,CA,2019-11-10 05:50:22,50.56,-96.99,14.0,78,61,3.0,broken clouds,0.0,0.0
236,Virginia Beach,US,2019-11-10 05:52:12,36.85,-75.98,39.0,59,1,9.31,clear sky,0.0,0.0
237,Salaberry-De-Valleyfield,CA,2019-11-10 05:52:13,45.26,-74.13,37.4,55,90,11.41,overcast clouds,0.0,0.0
238,Muriwai Beach,NZ,2019-11-10 05:50:46,-36.82,174.45,66.99,88,100,17.22,light rain,1.0,0.0
239,Kutum,SD,2019-11-10 05:52:14,14.2,24.66,70.12,20,84,6.35,broken clouds,0.0,0.0
240,Palmer,AU,2019-11-10 05:52:14,-34.85,139.16,75.0,35,0,6.93,clear sky,0.0,0.0
241,Potsdam,DE,2019-11-10 05:52:14,52.4,13.06,42.01,100,20,1.12,fog,0.0,0.0
242,Serebryansk,KZ,2019-11-10 05:52:15,49.68,83.3,32.74,99,100,3.85,light snow,0.0,0.37
243,Byron Bay,AU,2019-11-10 05:49:10,-28.65,153.62,78.01,25,90,14.99,overcast clouds,0.0,0.0
244,Banjar,ID,2019-11-10 05:52:16,-7.37,108.54,89.38,47,76,7.38,broken clouds,0.0,0.0
245,Yeppoon,AU,2019-11-10 05:52:16,-23.13,150.74,93.2,5,5,12.75,clear sky,0.0,0.0
246,Vilyuysk,RU,2019-11-10 05:50:39,63.75,121.63,14.77,94,100,5.55,light snow,0.0,0.75
247,Tefe,BR,2019-11-10 05:52:17,-3.35,-64.71,75.6,84,60,0.45,broken clouds,0.0,0.0
248,Ponca City,US,2019-11-10 05:52:17,36.73,-97.07,54.0,100,0,8.05,clear sky,0.0,0.0
249,Wakkanai,JP,2019-11-10 05:52:18,45.41,141.67,39.2,55,75,16.11,broken clouds,0.0,0.0
250,Verkhoyansk,RU,2019-11-10 05:49:43,67.55,133.39,-22.24,92,8,0.74,clear sky,0.0,0.0
251,Villacarrillo,ES,2019-11-10 05:52:19,38.12,-3.08,43.47,97,100,9.35,light rain,0.81,0.0
252,Kimbe,PG,2019-11-10 05:52:19,-5.56,150.15,71.24,96,100,4.79,moderate rain,5.44,0.0
253,Aguililla,MX,2019-11-10 05:52:20,18.74,-102.79,63.48,77,63,3.27,broken clouds,0.0,0.0
254,Mosquera,CO,2019-11-10 05:52:20,4.71,-74.23,55.4,93,75,3.36,broken clouds,0.0,0.0
255,Ak-Dovurak,RU,2019-11-10 05:52:21,51.17,90.6,27.82,79,100,4.59,overcast clouds,0.0,0.0
256,Yulara,AU,2019-11-10 05:52:21,-25.24,130.99,91.4,6,0,6.93,clear sky,0.0,0.0
257,Saskylakh,RU,2019-11-10 05:50:09,71.97,114.09,-3.28,99,94,0.69,overcast clouds,0.0,0.0
258,Pavlodar,KZ,2019-11-10 05:52:22,52.28,76.96,19.4,79,40,15.66,scattered clouds,0.0,0.0
259,Yar-Sale,RU,2019-11-10 05:52:23,66.83,70.83,-6.96,98,0,4.68,clear sky,0.0,0.0
260,Campobasso,IT,2019-11-10 05:52:23,41.56,14.66,51.01,95,76,1.16,broken clouds,0.0,0.0
261,Terrace,CA,2019-11-10 05:52:24,54.52,-128.61,46.4,93,75,11.41,light rain,0.0,0.0
262,Yagodnoye,RU,2019-11-10 05:52:24,62.52,149.63,-0.13,97,100,3.8,snow,0.0,2.19
263,Tual,ID,2019-11-10 05:52:25,-5.67,132.75,84.25,66,85,4.59,overcast clouds,0.0,0.0
264,Kirkwall,GB,2019-11-10 05:52:26,58.98,-2.96,41.0,60,22,8.05,few clouds,0.0,0.0
265,Havre-Saint-Pierre,CA,2019-11-10 05:52:26,50.23,-63.6,15.8,85,1,3.36,clear sky,0.0,0.0
266,Leningradskiy,RU,2019-11-10 05:52:27,69.38,178.42,17.91,58,7,3.76,clear sky,0.0,0.0
267,Vostok,RU,2019-11-10 05:52:27,46.45,135.83,30.9,57,20,4.21,few clouds,0.0,0.0
268,Kabanjahe,ID,2019-11-10 05:52:27,3.1,98.49,86.0,89,40,10.29,scattered clouds,0.0,0.0
269,Rosetta,EG,2019-11-10 05:52:28,31.4,30.42,71.6,83,20,6.93,few clouds,0.0,0.0
270,Novo Oriente,BR,2019-11-10 05:52:28,-5.54,-40.77,68.63,76,47,7.14,scattered clouds,0.0,0.0
271,Merauke,ID,2019-11-10 05:50:26,-8.49,140.4,85.75,59,41,11.48,scattered clouds,0.0,0.0
272,Lamu,CN,2019-11-10 05:52:30,35.77,102.37,41.85,16,0,4.7,clear sky,0.0,0.0
273,Abu Kamal,SY,2019-11-10 05:52:30,34.45,40.92,68.9,23,0,3.94,clear sky,0.0,0.0
274,Hofn,IS,2019-11-10 05:52:30,64.25,-15.21,45.12,76,99,27.47,light rain,1.25,0.0
275,Balsas,BR,2019-11-10 05:52:31,-7.53,-46.04,74.97,81,8,2.82,light rain,0.5,0.0
276,Pasvalys,LT,2019-11-10 05:52:31,56.06,24.4,46.4,81,90,11.41,overcast clouds,0.0,0.0
277,Portland,US,2019-11-10 05:50:48,43.66,-70.25,37.99,40,40,6.93,scattered clouds,0.0,0.0
278,Narsaq,GL,2019-11-10 05:52:32,60.91,-46.05,39.2,64,33,38.03,drizzle,0.0,0.0
279,Susaki,JP,2019-11-10 05:52:33,33.42,133.28,66.2,48,75,6.93,broken clouds,0.0,0.0
280,Biak,ID,2019-11-10 05:52:33,-0.91,122.88,77.68,85,94,14.85,moderate rain,10.94,0.0
281,Coahuayana,MX,2019-11-10 05:52:33,18.62,-100.35,72.03,81,4,2.8,clear sky,0.0,0.0
282,Panaba,MX,2019-11-10 05:52:34,21.28,-88.27,77.58,81,5,11.01,light rain,0.19,0.0
283,Bumba,CD,2019-11-10 05:52:35,2.18,22.47,77.14,78,51,1.54,broken clouds,0.0,0.0
284,Boa Vista,BR,2019-11-10 05:52:35,2.82,-60.67,82.4,69,36,5.82,light rain,0.12,0.0
285,Palembang,ID,2019-11-10 05:52:36,-2.99,104.76,102.18,24,37,3.78,scattered clouds,0.0,0.0
286,Isangel,VU,2019-11-10 05:51:21,-19.55,169.27,82.4,61,75,9.17,broken clouds,0.0,0.0
287,Fallon,US,2019-11-10 05:52:37,46.84,-105.12,23.0,92,90,12.75,light snow,0.0,0.0
288,Pryozerne,UA,2019-11-10 05:52:38,49.42,24.47,46.4,100,90,4.47,fog,0.0,0.0
289,Savannah Bight,HN,2019-11-10 05:52:39,16.45,-85.85,83.07,70,20,7.34,moderate rain,6.44,0.0
290,Mwinilunga,ZM,2019-11-10 05:52:40,-11.73,24.43,70.81,74,100,2.06,overcast clouds,0.0,0.0
291,Carlsbad,CZ,2019-11-10 05:52:40,50.23,12.87,34.0,96,90,2.24,mist,0.0,0.0
292,Westport,US,2019-11-10 05:52:41,41.14,-73.36,41.0,64,1,13.35,clear sky,0.0,0.0
293,Victor Harbor,AU,2019-11-10 05:52:41,-35.55,138.62,73.0,35,0,6.93,clear sky,0.0,0.0
294,Lompoc,US,2019-11-10 05:52:42,34.64,-120.46,57.99,93,40,12.37,mist,0.0,0.0
295,Alugan,PH,2019-11-10 05:52:42,12.22,125.48,86.36,67,58,7.74,light rain,1.75,0.0
296,Hay River,CA,2019-11-10 05:52:43,60.82,-115.79,-7.61,83,20,6.93,few clouds,0.0,0.0
297,Praia Da Vitoria,PT,2019-11-10 05:52:43,38.73,-27.07,55.4,93,20,2.98,few clouds,0.0,0.0
298,Sao Joao Da Barra,BR,2019-11-10 05:52:44,-21.64,-41.05,74.21,92,100,14.03,overcast clouds,0.0,0.0
299,Qasigiannguit,GL,2019-11-10 05:52:44,68.82,-51.19,37.4,32,80,19.46,broken clouds,0.0,0.0
300,Berdigestyakh,RU,2019-11-10 05:52:45,62.1,126.7,6.82,92,97,3.87,light snow,0.0,0.13
301,Selfoss,IS,2019-11-10 05:52:45,63.94,-21.0,42.8,70,75,17.22,broken clouds,0.0,0.0
302,Mountain Home,US,2019-11-10 05:52:45,43.13,-115.69,41.0,74,1,4.88,clear sky,0.0,0.0
303,Zhaotong,CN,2019-11-10 05:52:46,27.34,103.71,45.01,92,100,2.95,light rain,0.44,0.0
304,Chabahar,IR,2019-11-10 05:52:46,25.29,60.65,77.0,57,75,6.93,broken clouds,0.0,0.0
305,Tazovskiy,RU,2019-11-10 05:52:47,67.47,78.7,-7.19,96,83,8.79,broken clouds,0.0,0.0
306,Costinesti,RO,2019-11-10 05:52:47,43.95,28.63,61.0,93,75,6.93,mist,0.0,0.0
307,Sarangani,PH,2019-11-10 05:52:48,5.4,125.46,84.9,65,49,9.28,scattered clouds,0.0,0.0
308,Rumuruti,KE,2019-11-10 05:52:48,0.26,36.54,63.7,78,57,11.99,broken clouds,0.0,0.0
309,Shepsi,RU,2019-11-10 05:52:48,44.04,39.15,65.46,61,55,4.32,broken clouds,0.0,0.0
310,Channel-Port Aux Basques,CA,2019-11-10 05:52:49,47.57,-59.14,37.11,68,100,22.03,light snow,0.0,0.31
311,Provideniya,RU,2019-11-10 05:49:41,64.42,-173.23,33.96,98,100,4.21,light rain,0.19,0.0
312,Puerto Madryn,AR,2019-11-10 05:52:50,-42.77,-65.04,48.31,77,56,6.15,broken clouds,0.0,0.0
313,Inyonga,TZ,2019-11-10 05:52:51,-6.72,32.06,76.05,56,87,9.8,overcast clouds,0.0,0.0
314,Longonjo,AO,2019-11-10 05:52:51,-12.91,15.25,63.9,88,100,0.34,light rain,0.5,0.0
315,Blind River,CA,2019-11-10 05:52:51,46.19,-82.96,37.4,86,90,17.34,light snow,0.0,0.0
316,Kalmunai,LK,2019-11-10 05:52:52,7.42,81.82,82.38,73,54,7.43,broken clouds,0.0,0.0
317,Bagli,IN,2019-11-10 05:52:52,22.64,76.35,80.58,48,0,7.72,clear sky,0.0,0.0
318,Guangyuan,CN,2019-11-10 05:52:53,32.43,105.86,66.99,54,2,4.56,clear sky,0.0,0.0
319,Port Macquarie,AU,2019-11-10 05:52:53,-31.43,152.91,75.0,40,75,18.34,broken clouds,0.0,0.0
320,Bulaevo,KZ,2019-11-10 05:52:54,54.91,70.44,19.89,43,12,2.68,few clouds,0.0,0.0
321,Beringovskiy,RU,2019-11-10 05:52:54,63.05,179.32,35.4,99,100,11.83,light rain,1.94,0.0
322,Mutis,CO,2019-11-10 05:52:55,6.23,-77.4,77.86,78,100,5.21,overcast clouds,0.0,0.0
323,Port Hedland,AU,2019-11-10 05:52:55,-20.31,118.58,107.6,6,64,14.99,broken clouds,0.0,0.0
324,Gadarwara,IN,2019-11-10 05:52:55,22.92,78.78,79.59,53,0,5.86,clear sky,0.0,0.0
325,Coos Bay,US,2019-11-10 05:52:56,43.37,-124.22,53.01,87,90,2.26,overcast clouds,0.0,0.0
326,Deputatskiy,RU,2019-11-10 05:52:56,69.3,139.9,-14.97,100,99,1.74,overcast clouds,0.0,0.0
327,Xining,CN,2019-11-10 05:52:57,36.62,101.77,43.68,16,0,4.14,clear sky,0.0,0.0
328,Tabas,IR,2019-11-10 05:52:57,33.6,56.92,57.2,22,0,4.7,clear sky,0.0,0.0
329,Shadegan,IR,2019-11-10 05:52:58,30.65,48.67,69.8,63,0,4.16,clear sky,0.0,0.0
330,Florianopolis,BR,2019-11-10 05:51:40,-27.6,-48.55,73.99,100,75,8.05,broken clouds,0.0,0.0
331,Chumphon,TH,2019-11-10 05:52:58,10.5,99.18,87.8,62,40,10.29,scattered clouds,0.0,0.0
332,Souillac,FR,2019-11-10 05:50:10,45.6,-0.6,45.0,87,37,3.36,light rain,0.31,0.0
333,Vila Velha,BR,2019-11-10 05:52:59,-3.71,-38.6,80.6,74,40,17.22,scattered clouds,0.0,0.0
334,Marsaxlokk,MT,2019-11-10 05:53:00,35.84,14.54,62.01,62,20,9.17,few clouds,0.0,0.0
335,Shellbrook,CA,2019-11-10 05:53:00,53.22,-106.39,10.4,78,90,4.7,light snow,0.0,0.0
336,Umm Kaddadah,SD,2019-11-10 05:53:01,13.6,26.69,75.97,18,73,16.46,broken clouds,0.0,0.0
337,Goderich,CA,2019-11-10 05:53:01,43.74,-81.71,41.0,79,83,11.99,broken clouds,0.0,0.0
338,Warrnambool,AU,2019-11-10 05:53:02,-38.38,142.48,57.99,76,92,10.0,overcast clouds,0.0,0.0
339,Acapulco,MX,2019-11-10 05:53:02,16.86,-99.88,80.6,94,5,3.53,clear sky,0.0,0.0
340,Ostrovnoy,RU,2019-11-10 05:53:03,68.05,39.51,21.63,96,100,1.77,light snow,0.0,0.63
341,Kokuy,RU,2019-11-10 05:53:03,52.2,117.55,32.5,68,100,14.79,light snow,0.0,0.38
342,Kharan,PK,2019-11-10 05:53:04,28.58,65.42,65.08,14,35,7.18,scattered clouds,0.0,0.0
343,Arlit,NE,2019-11-10 05:53:04,18.74,7.39,78.89,14,0,6.11,clear sky,0.0,0.0
344,Chake Chake,TZ,2019-11-10 05:53:05,-5.25,39.77,81.55,80,58,12.91,moderate rain,8.25,0.0
345,Soe,EE,2019-11-10 05:53:06,57.91,26.05,50.0,100,97,6.93,light rain,0.0,0.0
346,Tromso,NO,2019-11-10 05:48:33,69.65,18.96,17.6,92,40,3.36,scattered clouds,0.0,0.0
347,Atar,MR,2019-11-10 05:50:38,20.52,-13.05,71.38,21,100,8.97,overcast clouds,0.0,0.0
348,Sola,TZ,2019-11-10 05:53:07,-3.17,33.8,75.25,57,12,8.21,few clouds,0.0,0.0
349,Sinnamary,GF,2019-11-10 05:53:08,5.38,-52.96,81.48,82,22,11.52,few clouds,0.0,0.0
350,Ganzhou,CN,2019-11-10 05:53:08,25.86,114.93,77.88,26,75,6.26,broken clouds,0.0,0.0
351,Togur,RU,2019-11-10 05:53:09,58.36,82.83,11.91,81,100,6.8,overcast clouds,0.0,0.0
352,Cururupu,BR,2019-11-10 05:53:09,-1.82,-44.87,72.79,98,91,2.3,overcast clouds,0.0,0.0
353,Rio Gallegos,AR,2019-11-10 05:53:09,-51.62,-69.22,41.0,70,42,20.8,scattered clouds,0.0,0.0
354,Villarrica,CL,2019-11-10 05:53:10,-39.28,-72.23,55.99,93,96,2.24,overcast clouds,0.0,0.0
355,Okha,RU,2019-11-10 05:53:10,53.59,142.95,24.58,73,100,16.22,light snow,0.0,0.13
356,Kabrai,IN,2019-11-10 05:53:11,25.4,80.01,84.58,31,0,6.4,clear sky,0.0,0.0
357,Zaysan,KZ,2019-11-10 05:53:12,47.47,84.87,39.07,65,100,8.93,light rain,0.13,0.0
358,Kattivakkam,IN,2019-11-10 05:53:12,13.22,80.32,89.6,62,20,3.36,haze,0.0,0.0
359,Bucerias,MX,2019-11-10 05:53:13,20.76,-105.33,81.0,94,75,2.24,broken clouds,0.0,0.0
360,Grenfell,AU,2019-11-10 05:53:13,-33.9,148.16,68.67,40,64,11.45,broken clouds,0.0,0.0
361,Esil,KZ,2019-11-10 05:53:14,51.96,66.41,13.64,83,0,4.81,clear sky,0.0,0.0
362,Petropavlovsk-Kamchatskiy,RU,2019-11-10 05:53:14,53.05,158.65,37.4,69,40,4.47,scattered clouds,0.0,0.0
363,Cleveland,US,2019-11-10 05:51:31,41.51,-81.69,37.99,57,1,3.36,clear sky,0.0,0.0
364,Novyy Urengoy,RU,2019-11-10 05:51:48,66.08,76.63,-8.81,93,0,7.72,clear sky,0.0,0.0
365,Aller,GB,2019-11-10 05:53:15,51.06,-2.86,43.0,100,90,18.34,light rain,0.0,0.0
366,Soyo,AO,2019-11-10 05:53:16,-6.13,12.37,78.8,94,75,4.7,broken clouds,0.0,0.0
367,Lae,PG,2019-11-10 05:53:17,-6.72,146.98,69.58,91,93,2.77,light rain,1.88,0.0
368,Hami,CN,2019-11-10 05:53:17,42.84,93.51,48.67,18,0,3.0,clear sky,0.0,0.0
369,Tutoia,BR,2019-11-10 05:53:17,-2.76,-42.27,74.1,93,19,4.97,few clouds,0.0,0.0
370,Huacho,PE,2019-11-10 05:53:18,-11.11,-77.61,60.84,87,73,2.84,broken clouds,0.0,0.0
371,Bermeo,ES,2019-11-10 05:53:18,43.42,-2.72,45.0,100,75,3.36,thunderstorm with light rain,0.0,0.0
372,Tiksi,RU,2019-11-10 05:53:19,71.64,128.87,-16.69,99,79,3.04,broken clouds,0.0,0.0
373,Fort Nelson,CA,2019-11-10 05:53:19,58.81,-122.69,5.0,84,90,2.24,light snow,0.0,0.0
374,Puksoozero,RU,2019-11-10 05:53:20,62.59,40.61,30.56,96,98,7.67,light snow,0.0,0.44
375,Jiaocheng,CN,2019-11-10 05:53:21,24.68,116.14,80.94,26,28,4.18,scattered clouds,0.0,0.0
376,Banikoara,BJ,2019-11-10 05:53:21,11.3,2.44,74.44,44,0,2.86,clear sky,0.0,0.0
377,Cabo San Lucas,MX,2019-11-10 05:52:20,22.89,-109.91,80.01,60,20,5.82,few clouds,0.0,0.0
378,Cabedelo,BR,2019-11-10 05:53:23,-6.97,-34.84,75.2,88,20,6.93,few clouds,0.0,0.0
379,Grand Gaube,MU,2019-11-10 05:53:23,-20.01,57.66,80.6,65,75,6.93,broken clouds,0.0,0.0
380,Shangqiu,CN,2019-11-10 05:53:24,34.42,115.65,73.99,25,0,1.01,clear sky,0.0,0.0
381,Khani,GE,2019-11-10 05:53:25,41.96,42.96,64.4,39,0,14.99,clear sky,0.0,0.0
382,Atasu,KZ,2019-11-10 05:53:25,48.68,71.64,27.32,79,99,23.2,light snow,0.0,0.56
383,Kraslava,LV,2019-11-10 05:53:25,55.9,27.16,50.88,96,100,7.58,light rain,1.63,0.0
384,Cobourg,CA,2019-11-10 05:52:44,43.96,-78.17,41.0,74,90,6.93,overcast clouds,0.0,0.0
385,Galiakot,IN,2019-11-10 05:53:27,23.54,74.01,85.17,38,0,6.67,clear sky,0.0,0.0
386,Arman,RU,2019-11-10 05:53:27,59.7,150.17,20.16,85,100,17.11,light snow,0.0,0.37
387,Hobyo,SO,2019-11-10 05:53:28,5.35,48.53,83.03,60,8,13.71,clear sky,0.0,0.0
388,Acajutla,SV,2019-11-10 05:53:28,13.59,-89.83,83.19,67,90,6.11,overcast clouds,0.0,0.0
389,Pitimbu,BR,2019-11-10 05:53:29,-7.47,-34.81,75.2,88,20,6.93,few clouds,0.0,0.0
390,Buala,SB,2019-11-10 05:53:29,-8.15,159.59,82.29,76,100,0.67,moderate rain,5.25,0.0
391,Kamakwie,SL,2019-11-10 05:53:30,9.5,-12.24,72.41,98,39,1.66,scattered clouds,0.0,0.0
392,Eyl,SO,2019-11-10 05:51:19,7.98,49.82,79.41,74,30,16.89,scattered clouds,0.0,0.0
393,Palu,ID,2019-11-10 05:53:31,-0.9,119.87,77.67,83,91,3.51,light rain,1.94,0.0
394,Vestmannaeyjar,IS,2019-11-10 05:53:31,63.44,-20.27,46.31,77,25,34.2,light rain,0.19,0.0
395,Puerto Escondido,MX,2019-11-10 05:53:31,15.86,-97.07,70.93,69,0,5.19,clear sky,0.0,0.0
396,Santa Cruz Cabralia,BR,2019-11-10 05:53:32,-16.28,-39.02,75.2,83,40,3.36,scattered clouds,0.0,0.0
397,Klaksvik,FO,2019-11-10 05:53:32,62.23,-6.59,33.8,69,87,2.24,overcast clouds,0.0,0.0
398,Thompson,CA,2019-11-10 05:50:12,55.74,-97.86,-4.01,76,75,11.41,broken clouds,0.0,0.0
399,Koumac,NC,2019-11-10 05:53:33,-20.56,164.28,75.18,48,12,8.32,few clouds,0.0,0.0
400,Neufahrn,AT,2019-11-10 05:53:34,47.92,13.22,34.0,100,75,1.12,fog,0.0,0.0
401,Coronado,PA,2019-11-10 05:53:34,8.53,-79.9,79.0,94,95,6.02,light rain,0.25,0.0
402,Gunjur,GM,2019-11-10 05:53:34,13.18,-16.76,71.6,64,5,6.93,clear sky,0.0,0.0
403,Najran,SA,2019-11-10 05:53:35,17.54,44.22,69.8,32,0,5.01,clear sky,0.0,0.0
404,Leua,AO,2019-11-10 05:53:35,-11.65,20.45,68.0,94,75,6.93,broken clouds,0.0,0.0
405,Saint-Augustin,CA,2019-11-10 05:53:36,45.63,-73.98,36.0,55,90,11.41,overcast clouds,0.0,0.0
406,Gunnedah,AU,2019-11-10 05:53:36,-30.98,150.25,79.0,19,0,12.75,clear sky,0.0,0.0
407,Alamosa,US,2019-11-10 05:53:36,37.47,-105.87,37.4,40,1,10.29,clear sky,0.0,0.0
408,Nsanje,MZ,2019-11-10 05:53:37,-16.92,35.26,85.75,56,38,7.27,scattered clouds,0.0,0.0
409,Katherine,AU,2019-11-10 05:53:37,-14.47,132.26,104.0,11,40,8.05,scattered clouds,0.0,0.0
410,Saint-Pierre,FR,2019-11-10 05:53:38,48.95,4.24,41.0,93,90,14.99,overcast clouds,0.0,0.0
411,Dharchula,IN,2019-11-10 05:53:40,29.85,80.53,54.79,32,0,7.56,clear sky,0.0,0.0
412,Savannakhet,TH,2019-11-10 05:53:40,16.57,104.76,82.4,45,40,4.7,scattered clouds,0.0,0.0
413,Mount Gambier,AU,2019-11-10 05:52:54,-37.83,140.78,59.0,72,90,13.87,overcast clouds,0.0,0.0
414,Miramar,CR,2019-11-10 05:53:42,10.09,-84.73,75.0,73,100,9.17,overcast clouds,0.0,0.0
415,Tolga,DZ,2019-11-10 05:53:42,34.73,5.38,48.2,61,20,8.05,few clouds,0.0,0.0
416,Diffa,NE,2019-11-10 05:53:42,13.32,12.61,78.94,18,14,8.19,few clouds,0.0,0.0
417,Sur,OM,2019-11-10 05:53:43,22.57,59.53,79.2,46,79,5.26,broken clouds,0.0,0.0
418,Manono,CD,2019-11-10 05:53:43,-7.3,27.4,75.25,86,100,3.49,light rain,0.94,0.0
419,Port Elizabeth,US,2019-11-10 05:53:44,39.31,-74.98,35.6,74,20,3.36,few clouds,0.0,0.0
420,Rome,IT,2019-11-10 05:50:28,41.89,12.48,50.0,87,29,5.82,scattered clouds,0.0,0.0
421,Namie,JP,2019-11-10 05:53:45,37.52,140.86,60.8,46,20,16.11,few clouds,0.0,0.0
422,Perth,AU,2019-11-10 05:52:08,-31.95,115.86,78.8,57,40,10.29,scattered clouds,0.0,0.0
423,Sharjah,AE,2019-11-10 05:53:45,25.36,55.39,75.2,60,70,12.75,broken clouds,0.0,0.0
424,Chavakkad,IN,2019-11-10 05:53:47,10.53,76.05,87.8,66,40,7.74,scattered clouds,0.0,0.0
425,Moroto,UG,2019-11-10 05:53:47,2.53,34.66,75.7,58,7,2.53,clear sky,0.0,0.0
426,Dakar,SN,2019-11-10 05:53:30,14.69,-17.45,75.2,88,47,13.87,scattered clouds,0.0,0.0
427,Lindsay,CA,2019-11-10 05:53:48,44.36,-78.74,39.2,74,90,6.93,overcast clouds,0.0,0.0
428,Buraydah,SA,2019-11-10 05:53:49,26.33,43.97,71.6,88,75,17.22,broken clouds,0.0,0.0
429,Caucaia,BR,2019-11-10 05:53:49,-3.73,-38.66,80.6,74,40,17.22,scattered clouds,0.0,0.0
430,Forio,IT,2019-11-10 05:53:50,40.73,13.86,55.0,100,20,2.24,few clouds,0.0,0.0
431,Port Augusta,AU,2019-11-10 05:53:50,-32.49,137.76,81.0,33,0,16.11,clear sky,0.0,0.0
432,Doha,QA,2019-11-10 05:51:13,25.29,51.53,87.8,55,20,1.12,few clouds,0.0,0.0
433,Allahabad,IN,2019-11-10 05:53:51,25.44,81.83,84.43,41,0,5.48,clear sky,0.0,0.0
434,Karratha,AU,2019-11-10 05:53:52,-20.74,116.85,84.27,53,60,11.5,broken clouds,0.0,0.0
435,Atambua,ID,2019-11-10 05:53:52,-9.11,124.89,83.7,62,9,7.52,clear sky,0.0,0.0
436,Sao Filipe,CV,2019-11-10 05:53:52,14.9,-24.5,74.25,82,92,15.68,overcast clouds,0.0,0.0
437,Batagay,RU,2019-11-10 05:53:53,67.65,134.64,-20.42,95,30,0.25,scattered clouds,0.0,0.0
438,Natal,BR,2019-11-10 05:53:53,-5.81,-35.21,77.0,83,20,9.17,few clouds,0.0,0.0
439,Ponta Do Sol,BR,2019-11-10 05:53:54,-20.63,-46.0,67.28,92,100,2.8,light rain,1.06,0.0
440,Junction City,US,2019-11-10 05:53:55,39.03,-96.83,55.99,58,0,6.93,clear sky,0.0,0.0
441,Puri,ID,2019-11-10 05:53:55,-7.54,112.45,96.28,39,14,1.86,light rain,1.31,0.0
442,Probolinggo,ID,2019-11-10 05:53:55,-7.74,113.22,85.8,61,0,7.61,clear sky,0.0,0.0
443,Paamiut,GL,2019-11-10 05:53:57,61.99,-49.67,39.81,63,100,15.37,light snow,0.0,0.13
444,San Lorenzo,HN,2019-11-10 05:53:57,13.43,-87.45,72.28,86,57,3.94,broken clouds,0.0,0.0
445,Inverness,GB,2019-11-10 05:53:57,57.48,-4.23,42.8,85,95,5.82,overcast clouds,0.0,0.0
446,Benguela,AO,2019-11-10 05:53:58,-12.58,13.4,80.6,83,90,6.4,overcast clouds,0.0,0.0
447,Totton,GB,2019-11-10 05:53:58,50.92,-1.49,45.0,93,98,11.41,light rain,0.0,0.0
448,Katsuura,JP,2019-11-10 05:53:59,33.93,134.5,66.0,48,75,11.41,broken clouds,0.0,0.0
449,Hecun,CN,2019-11-10 05:53:59,29.94,119.31,70.3,40,32,5.57,scattered clouds,0.0,0.0
450,Tet,IL,2019-11-10 05:54:00,31.25,34.77,68.0,91,65,6.8,broken clouds,0.0,0.0
451,Marsa Matruh,EG,2019-11-10 05:54:00,31.35,27.25,62.6,55,86,5.99,overcast clouds,0.0,0.0
452,Vangaindrano,MG,2019-11-10 05:54:00,-23.35,47.6,80.44,67,75,4.85,broken clouds,0.0,0.0
453,Smithers,CA,2019-11-10 05:54:01,54.78,-127.17,28.4,63,90,12.75,light snow,0.0,0.0
454,Portoferraio,IT,2019-11-10 05:54:01,42.81,10.31,51.01,86,30,4.7,light rain,1.19,0.0
455,Ekibastuz,KZ,2019-11-10 05:54:02,51.72,75.32,20.88,78,80,13.47,broken clouds,0.0,0.0
456,Neka,IR,2019-11-10 05:54:02,36.65,53.3,55.4,71,0,4.7,clear sky,0.0,0.0
457,Georgetown,GY,2019-11-10 05:49:15,6.8,-58.16,77.0,94,20,4.7,few clouds,0.0,0.0
458,Svetlaya,RU,2019-11-10 05:54:03,46.54,138.33,39.6,39,0,5.21,clear sky,0.0,0.0
459,Chor,PK,2019-11-10 05:54:04,25.52,69.77,82.62,18,0,10.69,clear sky,0.0,0.0
460,Letka,BA,2019-11-10 05:54:04,43.74,17.27,48.2,100,75,2.24,broken clouds,0.0,0.0
461,Clyde River,CA,2019-11-10 05:54:04,70.47,-68.59,15.8,92,90,38.03,snow,0.0,0.0
462,Tongliao,CN,2019-11-10 05:54:05,43.61,122.27,49.69,80,100,8.72,light rain,0.94,0.0
463,Nishihara,JP,2019-11-10 05:54:05,35.74,139.53,70.0,55,20,3.36,few clouds,0.0,0.0
464,Ambikapur,IN,2019-11-10 05:54:06,23.12,83.2,80.17,53,2,8.77,clear sky,0.0,0.0
465,Sar-E Pul,AF,2019-11-10 05:54:06,36.22,65.93,45.63,46,0,2.8,clear sky,0.0,0.0
466,Neiafu,TO,2019-11-10 05:54:07,-18.65,-173.98,80.6,74,20,8.05,few clouds,0.0,0.0
467,Quixere,BR,2019-11-10 05:54:07,-5.07,-37.99,72.37,79,39,6.29,scattered clouds,0.0,0.0
468,Yumen,CN,2019-11-10 05:54:08,40.29,97.04,52.41,12,0,16.93,clear sky,0.0,0.0
469,Bassila,BJ,2019-11-10 05:54:08,9.0,1.66,72.45,70,12,1.92,few clouds,0.0,0.0
470,Brawley,US,2019-11-10 05:54:08,32.98,-115.53,73.99,18,1,9.17,clear sky,0.0,0.0
471,Narnaul,IN,2019-11-10 05:54:09,28.04,76.11,80.29,29,3,3.78,clear sky,0.0,0.0
472,Sechura,PE,2019-11-10 05:54:09,-5.56,-80.82,63.7,89,4,7.29,clear sky,0.0,0.0
473,Port-Cartier,CA,2019-11-10 05:54:10,50.03,-66.88,19.0,92,90,5.82,light snow,0.0,0.0
474,Ugoofaaru,MV,2019-11-10 05:54:11,5.67,73.0,82.29,71,4,6.35,clear sky,0.0,0.0
475,Omboue,GA,2019-11-10 05:54:12,-1.57,9.26,76.35,95,100,2.73,overcast clouds,0.0,0.0
476,Porto Velho,BR,2019-11-10 05:54:01,-8.75,-63.87,75.2,94,75,6.93,thunderstorm,0.0,0.0
477,Bereda,ES,2019-11-10 05:51:09,43.27,-7.54,55.0,76,40,12.75,scattered clouds,0.0,0.0
478,Zhezkazgan,KZ,2019-11-10 05:54:14,47.8,67.71,30.2,80,75,22.37,broken clouds,0.0,0.0
479,Lufilufi,WS,2019-11-10 05:54:14,-13.87,-171.6,80.6,94,75,4.7,light rain,0.0,0.0
480,Salinopolis,BR,2019-11-10 05:54:15,-0.61,-47.36,81.61,81,81,15.01,broken clouds,0.0,0.0
481,Northam,AU,2019-11-10 05:54:15,-31.65,116.67,78.8,50,0,12.75,clear sky,0.0,0.0
482,Huarmey,PE,2019-11-10 05:54:16,-10.07,-78.15,61.7,85,89,1.7,overcast clouds,0.0,0.0
483,Kinshasa,CD,2019-11-10 05:54:17,-4.32,15.31,77.0,94,20,3.36,few clouds,0.0,0.0
484,La Maddalena,IT,2019-11-10 05:54:17,39.15,9.02,53.6,93,20,3.36,few clouds,0.0,0.0
485,Chamalieres,FR,2019-11-10 05:54:18,45.78,3.06,42.8,75,75,5.82,broken clouds,0.0,0.0
486,Korsakov,RU,2019-11-10 05:54:19,46.63,142.78,35.6,47,20,8.95,few clouds,0.0,0.0
487,Gillette,US,2019-11-10 05:54:19,44.29,-105.5,41.0,80,1,5.82,clear sky,0.0,0.0
488,Kamina,CD,2019-11-10 05:54:19,-8.74,25.0,75.0,74,97,1.48,overcast clouds,0.0,0.0
489,Lieksa,FI,2019-11-10 05:54:20,63.32,30.02,34.75,99,100,5.44,light rain,1.19,0.0
490,Zapolyarnyy,RU,2019-11-10 05:54:20,69.43,30.82,-7.61,83,2,4.7,clear sky,0.0,0.0
491,Ixtapa,MX,2019-11-10 05:54:21,20.71,-105.21,81.0,94,75,2.24,broken clouds,0.0,0.0
492,Karacakoy,TR,2019-11-10 05:54:21,41.4,28.38,61.0,77,15,6.93,few clouds,0.0,0.0
493,Moranbah,AU,2019-11-10 05:54:22,-22.0,148.04,89.58,8,35,7.49,scattered clouds,0.0,0.0
494,Kuryk,KZ,2019-11-10 05:54:22,43.18,51.68,57.7,57,22,21.32,few clouds,0.0,0.0
495,Tuatapere,NZ,2019-11-10 05:54:23,-46.13,167.69,52.0,77,100,7.0,light rain,0.13,0.0
496,Male,UA,2019-11-10 05:54:23,50.74,33.7,48.43,91,74,12.57,broken clouds,0.0,0.0
497,West Bay,CA,2019-11-10 05:54:23,49.34,-123.21,51.01,93,90,4.7,overcast clouds,0.0,0.0
498,Kadoma,JP,2019-11-10 05:54:24,34.73,135.6,70.0,48,75,3.36,broken clouds,0.0,0.0
499,Kushima,JP,2019-11-10 05:54:25,31.5,131.29,68.0,49,40,4.7,scattered clouds,0.0,0.0
500,Liancheng,CN,2019-11-10 05:54:25,24.05,105.06,58.89,73,100,5.06,overcast clouds,0.0,0.0
501,Noyabrsk,RU,2019-11-10 05:54:26,63.2,75.45,-0.48,94,98,7.45,light snow,0.0,0.13
502,Gwadar,PK,2019-11-10 05:54:26,25.12,62.33,78.53,33,100,6.87,overcast clouds,0.0,0.0
503,Pangkalanbuun,ID,2019-11-10 05:54:26,-2.68,111.62,98.65,32,6,4.76,clear sky,0.0,0.0
504,Pechora,RU,2019-11-10 05:54:27,65.12,57.16,4.64,92,60,6.38,broken clouds,0.0,0.0
505,Maraba,BR,2019-11-10 05:54:27,-5.35,-49.1,75.2,100,72,2.1,broken clouds,0.0,0.0
506,Port Lincoln,AU,2019-11-10 05:54:28,-34.72,135.86,63.84,59,0,10.49,clear sky,0.0,0.0
507,High Level,CA,2019-11-10 05:54:28,58.52,-117.13,-13.01,75,1,3.2,mist,0.0,0.0
508,Margate,AU,2019-11-10 05:54:29,-43.03,147.26,62.01,48,75,10.29,broken clouds,0.0,0.0
509,Kayerkan,RU,2019-11-10 05:54:29,69.35,87.76,-18.41,75,40,2.24,scattered clouds,0.0,0.0
510,Calama,CL,2019-11-10 05:54:30,-22.46,-68.93,48.2,15,32,16.11,scattered clouds,0.0,0.0
511,Policka,CZ,2019-11-10 05:54:30,49.71,16.27,37.0,95,7,1.12,mist,0.0,0.0
512,Port Blair,IN,2019-11-10 05:54:31,11.67,92.75,82.17,71,22,3.38,few clouds,0.0,0.0
513,Haradok,BY,2019-11-10 05:54:31,55.46,29.99,50.0,100,90,8.95,light intensity drizzle,0.0,0.0
514,Plettenberg Bay,ZA,2019-11-10 05:54:32,-34.05,23.37,64.89,80,91,12.57,overcast clouds,0.0,0.0
515,Santa Vitoria Do Palmar,BR,2019-11-10 05:54:32,-33.52,-53.37,61.0,85,23,8.59,few clouds,0.0,0.0
516,Vila Franca Do Campo,PT,2019-11-10 05:54:32,37.72,-25.43,59.0,87,20,8.05,few clouds,0.0,0.0
517,Tiznit,MA,2019-11-10 05:54:33,29.7,-9.73,53.49,37,0,2.21,clear sky,0.0,0.0
518,Maningrida,AU,2019-11-10 05:54:33,-12.05,134.23,90.01,46,20,13.85,few clouds,0.0,0.0
519,Carutapera,BR,2019-11-10 05:54:34,-1.2,-46.02,81.03,81,74,13.71,broken clouds,0.0,0.0
520,Port Keats,AU,2019-11-10 05:54:34,-14.25,129.55,91.36,51,31,14.72,scattered clouds,0.0,0.0
521,Gornopravdinsk,RU,2019-11-10 05:50:24,60.06,69.92,12.02,81,73,3.22,broken clouds,0.0,0.0
522,Kayan,MM,2019-11-10 05:54:35,16.91,96.56,87.8,70,75,5.82,broken clouds,0.0,0.0
523,North Bend,US,2019-11-10 05:54:35,43.41,-124.22,53.01,87,90,2.26,overcast clouds,0.0,0.0
524,Cobija,BR,2019-11-10 05:54:36,-11.02,-68.77,74.21,83,94,1.05,light rain,0.5,0.0
525,Ancud,CL,2019-11-10 05:54:36,-41.87,-73.83,48.2,100,74,3.36,broken clouds,0.0,0.0
526,Trincomalee,LK,2019-11-10 05:54:37,8.58,81.23,92.8,46,24,2.8,few clouds,0.0,0.0
527,Araguaina,BR,2019-11-10 05:54:37,-7.19,-48.21,77.11,72,30,2.68,scattered clouds,0.0,0.0
528,Yarada,IN,2019-11-10 05:54:38,17.65,83.27,87.8,52,20,9.17,haze,0.0,0.0
529,Port Pirie,AU,2019-11-10 05:54:38,-33.18,138.01,73.4,33,0,16.11,clear sky,0.0,0.0
530,Mackenzie,CA,2019-11-10 05:54:39,55.34,-123.09,10.4,60,90,5.82,overcast clouds,0.0,0.0
531,Hwange,ZW,2019-11-10 05:54:40,-18.35,26.5,80.26,49,86,10.45,overcast clouds,0.0,0.0
532,Son La,VN,2019-11-10 05:54:41,21.32,103.9,76.59,52,84,3.85,broken clouds,0.0,0.0
533,Ilanskiy,RU,2019-11-10 05:54:42,56.24,96.06,15.1,52,100,10.09,overcast clouds,0.0,0.0
534,Kirakira,SB,2019-11-10 05:54:43,-10.46,161.92,80.22,68,72,6.02,broken clouds,0.0,0.0
535,Nguru,NG,2019-11-10 05:54:43,12.88,10.45,77.54,23,54,5.64,broken clouds,0.0,0.0
536,Las Navas,PH,2019-11-10 05:54:44,12.34,125.03,86.94,63,50,7.7,light rain,0.69,0.0
537,Lexington Park,US,2019-11-10 05:54:44,38.26,-76.45,44.01,100,1,3.36,clear sky,0.0,0.0
538,Japura,ID,2019-11-10 05:50:25,-0.42,102.29,91.63,52,79,2.64,light rain,0.25,0.0
539,Maanshan,CN,2019-11-10 05:54:45,31.7,118.5,81.0,27,0,15.66,clear sky,0.0,0.0
540,Azuaga,ES,2019-11-10 05:54:45,38.26,-5.68,44.01,90,100,10.0,overcast clouds,0.0,0.0
541,Camacha,PT,2019-11-10 05:54:46,33.08,-16.33,64.4,93,40,8.05,scattered clouds,0.0,0.0
542,Arroyo,BO,2019-11-10 05:54:47,-11.08,-66.08,74.1,94,82,2.71,broken clouds,0.0,0.0
543,Barabinsk,RU,2019-11-10 05:54:47,55.35,78.35,16.75,47,33,5.82,scattered clouds,0.0,0.0
544,Dickinson,US,2019-11-10 05:54:47,46.88,-102.79,24.01,85,90,13.87,light snow,0.0,0.0
545,Los Llanos De Aridane,ES,2019-11-10 05:54:48,28.66,-17.92,69.8,64,75,19.46,broken clouds,0.0,0.0
546,Saldanha,PT,2019-11-10 05:49:56,41.42,-6.55,40.68,85,100,11.18,overcast clouds,0.0,0.0
547,Balkanabat,TM,2019-11-10 05:54:49,39.51,54.36,61.79,17,0,16.11,clear sky,0.0,0.0
548,Astoria,US,2019-11-10 05:54:49,46.19,-123.83,52.0,93,90,2.55,light rain,0.25,0.0
549,Coihaique,CL,2019-11-10 05:54:50,-45.58,-72.07,50.0,93,100,3.36,overcast clouds,0.0,0.0
550,Konstantinovka,UA,2019-11-10 05:54:50,46.85,29.85,56.7,89,59,11.81,broken clouds,0.0,0.0
551,Chifeng,CN,2019-11-10 05:54:51,42.27,118.96,49.69,27,100,14.12,overcast clouds,0.0,0.0
552,Constitucion,MX,2019-11-10 05:54:51,23.99,-104.67,59.65,77,91,3.22,light rain,0.13,0.0
553,Hounde,BF,2019-11-10 05:54:52,11.5,-3.52,76.71,46,0,5.14,clear sky,0.0,0.0
554,Dandong,CN,2019-11-10 05:54:52,40.12,124.37,51.03,80,100,18.3,light rain,2.88,0.0
555,Turochak,RU,2019-11-10 05:54:53,52.26,87.12,22.86,76,100,3.69,overcast clouds,0.0,0.0
556,Wagar,US,2019-11-10 05:54:53,31.44,-87.99,45.0,91,0,1.23,clear sky,0.0,0.0
557,Puro,PH,2019-11-10 05:54:54,13.13,123.76,85.53,69,67,7.11,broken clouds,0.0,0.0
558,Jalu,LY,2019-11-10 05:50:40,29.03,21.55,71.28,28,52,10.85,broken clouds,0.0,0.0
559,Latung,ID,2019-11-10 05:54:54,-8.45,120.42,82.2,60,3,7.49,light rain,0.44,0.0
560,Luchegorsk,RU,2019-11-10 05:54:55,46.44,134.3,36.1,46,36,4.32,scattered clouds,0.0,0.0
561,San Antonio,CL,2019-11-10 05:54:55,-33.58,-71.61,56.28,56,0,3.4,clear sky,0.0,0.0
562,Knyaze-Volkonskoye,RU,2019-11-10 05:54:56,48.46,135.46,35.6,40,1,15.66,clear sky,0.0,0.0
563,Sungairaya,ID,2019-11-10 05:54:56,0.7,108.9,89.02,59,13,6.98,few clouds,0.0,0.0
564,Poum,MK,2019-11-10 05:54:57,41.28,20.71,48.2,87,90,3.36,light rain,0.0,0.0
565,Yarmouth,CA,2019-11-10 05:54:57,43.84,-66.12,41.0,55,75,12.75,broken clouds,0.0,0.0
